{
  "stations": [
    { "code": "210", "name": "Valkenburg", "lat": 52.17, "lon": 4.42, "avgLastFrostDate": "04-15", "avgFirstFrostDate": "11-05" },
    { "code": "215", "name": "Voorschoten", "lat": 52.12, "lon": 4.43, "avgLastFrostDate": "04-12", "avgFirstFrostDate": "11-08" },
    { "code": "225", "name": "IJmuiden", "lat": 52.46, "lon": 4.56, "avgLastFrostDate": "04-05", "avgFirstFrostDate": "11-15" },
    { "code": "235", "name": "De Kooy (Den Helder)", "lat": 52.93, "lon": 4.78, "avgLastFrostDate": "04-08", "avgFirstFrostDate": "11-12" },
    { "code": "240", "name": "Schiphol", "lat": 52.30, "lon": 4.77, "avgLastFrostDate": "04-18", "avgFirstFrostDate": "10-28" },
    { "code": "242", "name": "Vlieland", "lat": 53.24, "lon": 4.92, "avgLastFrostDate": "04-02", "avgFirstFrostDate": "11-20" },
    { "code": "249", "name": "Berkhout", "lat": 52.64, "lon": 4.99, "avgLastFrostDate": "04-20", "avgFirstFrostDate": "10-25" },
    { "code": "251", "name": "Hoorn (Terschelling)", "lat": 53.39, "lon": 5.35, "avgLastFrostDate": "04-05", "avgFirstFrostDate": "11-15" },
    { "code": "257", "name": "Wijk aan Zee", "lat": 52.49, "lon": 4.60, "avgLastFrostDate": "04-08", "avgFirstFrostDate": "11-10" },
    { "code": "260", "name": "De Bilt", "lat": 52.10, "lon": 5.18, "avgLastFrostDate": "04-20", "avgFirstFrostDate": "10-25" },
    { "code": "267", "name": "Stavoren", "lat": 52.88, "lon": 5.38, "avgLastFrostDate": "04-15", "avgFirstFrostDate": "11-01" },
    { "code": "269", "name": "Lelystad", "lat": 52.46, "lon": 5.52, "avgLastFrostDate": "04-22", "avgFirstFrostDate": "10-22" },
    { "code": "270", "name": "Leeuwarden", "lat": 53.22, "lon": 5.75, "avgLastFrostDate": "04-25", "avgFirstFrostDate": "10-20" },
    { "code": "273", "name": "Marknesse", "lat": 52.70, "lon": 5.89, "avgLastFrostDate": "04-28", "avgFirstFrostDate": "10-18" },
    { "code": "275", "name": "Deelen", "lat": 52.06, "lon": 5.88, "avgLastFrostDate": "04-28", "avgFirstFrostDate": "10-15" },
    { "code": "277", "name": "Lauwersoog", "lat": 53.41, "lon": 6.20, "avgLastFrostDate": "04-18", "avgFirstFrostDate": "10-28" },
    { "code": "278", "name": "Heino", "lat": 52.44, "lon": 6.26, "avgLastFrostDate": "04-28", "avgFirstFrostDate": "10-18" },
    { "code": "279", "name": "Hoogeveen", "lat": 52.73, "lon": 6.52, "avgLastFrostDate": "05-01", "avgFirstFrostDate": "10-12" },
    { "code": "280", "name": "Eelde (Groningen)", "lat": 53.13, "lon": 6.58, "avgLastFrostDate": "04-28", "avgFirstFrostDate": "10-18" },
    { "code": "283", "name": "Hupsel", "lat": 52.07, "lon": 6.66, "avgLastFrostDate": "04-28", "avgFirstFrostDate": "10-18" },
    { "code": "286", "name": "Nieuw Beerta", "lat": 53.20, "lon": 7.15, "avgLastFrostDate": "04-28", "avgFirstFrostDate": "10-18" },
    { "code": "290", "name": "Twenthe", "lat": 52.27, "lon": 6.90, "avgLastFrostDate": "04-28", "avgFirstFrostDate": "10-18" },
    { "code": "310", "name": "Vlissingen", "lat": 51.44, "lon": 3.60, "avgLastFrostDate": "04-05", "avgFirstFrostDate": "11-15" },
    { "code": "319", "name": "Westdorpe", "lat": 51.23, "lon": 3.83, "avgLastFrostDate": "04-15", "avgFirstFrostDate": "10-28" },
    { "code": "323", "name": "Wilhelminadorp", "lat": 51.53, "lon": 3.88, "avgLastFrostDate": "04-10", "avgFirstFrostDate": "11-05" },
    { "code": "330", "name": "Hoek van Holland", "lat": 51.98, "lon": 4.12, "avgLastFrostDate": "04-08", "avgFirstFrostDate": "11-10" },
    { "code": "340", "name": "Woensdrecht", "lat": 51.45, "lon": 4.34, "avgLastFrostDate": "04-18", "avgFirstFrostDate": "10-28" },
    { "code": "344", "name": "Rotterdam", "lat": 51.96, "lon": 4.45, "avgLastFrostDate": "04-12", "avgFirstFrostDate": "11-02" },
    { "code": "348", "name": "Cabauw", "lat": 51.97, "lon": 4.93, "avgLastFrostDate": "04-20", "avgFirstFrostDate": "10-25" },
    { "code": "350", "name": "Gilze-Rijen", "lat": 51.57, "lon": 4.93, "avgLastFrostDate": "04-22", "avgFirstFrostDate": "10-22" },
    { "code": "356", "name": "Herwijnen", "lat": 51.86, "lon": 5.15, "avgLastFrostDate": "04-20", "avgFirstFrostDate": "10-25" },
    { "code": "370", "name": "Eindhoven", "lat": 51.45, "lon": 5.42, "avgLastFrostDate": "04-22", "avgFirstFrostDate": "10-22" },
    { "code": "375", "name": "Volkel", "lat": 51.66, "lon": 5.71, "avgLastFrostDate": "04-25", "avgFirstFrostDate": "10-20" },
    { "code": "377", "name": "Ell", "lat": 51.20, "lon": 5.76, "avgLastFrostDate": "04-25", "avgFirstFrostDate": "10-20" },
    { "code": "380", "name": "Maastricht", "lat": 50.91, "lon": 5.77, "avgLastFrostDate": "04-18", "avgFirstFrostDate": "10-25" },
    { "code": "391", "name": "Arcen", "lat": 51.50, "lon": 6.20, "avgLastFrostDate": "04-25", "avgFirstFrostDate": "10-20" },
    { "code": "550", "name": "De Bilt (referentie)", "lat": 52.10, "lon": 5.18, "avgLastFrostDate": "04-20", "avgFirstFrostDate": "10-25" }
  ],
  "postcodeRanges": {
    "1000-1099": "240",
    "1100-1199": "240",
    "1200-1299": "240",
    "1300-1399": "249",
    "1400-1499": "249",
    "1500-1599": "249",
    "1600-1699": "249",
    "1700-1799": "249",
    "1800-1899": "249",
    "1900-1999": "249",
    "2000-2099": "210",
    "2100-2199": "210",
    "2200-2299": "210",
    "2300-2399": "210",
    "2400-2499": "210",
    "2500-2599": "210",
    "2600-2699": "210",
    "2700-2799": "344",
    "2800-2899": "344",
    "2900-2999": "344",
    "3000-3099": "344",
    "3100-3199": "344",
    "3200-3299": "348",
    "3300-3399": "348",
    "3400-3499": "348",
    "3500-3599": "260",
    "3600-3699": "260",
    "3700-3799": "260",
    "3800-3899": "260",
    "3900-3999": "356",
    "4000-4099": "340",
    "4100-4199": "340",
    "4200-4299": "340",
    "4300-4399": "323",
    "4400-4499": "340",
    "4500-4599": "323",
    "4600-4699": "340",
    "4700-4799": "340",
    "4800-4899": "350",
    "4900-4999": "350",
    "5000-5099": "370",
    "5100-5199": "370",
    "5200-5299": "370",
    "5300-5399": "370",
    "5400-5499": "370",
    "5500-5599": "370",
    "5600-5699": "370",
    "5700-5799": "375",
    "5800-5899": "377",
    "5900-5999": "391",
    "6000-6099": "377",
    "6100-6199": "380",
    "6200-6299": "380",
    "6300-6399": "380",
    "6400-6499": "391",
    "6500-6599": "391",
    "6600-6699": "391",
    "6700-6799": "283",
    "6800-6899": "283",
    "6900-6999": "391",
    "7000-7099": "283",
    "7100-7199": "283",
    "7200-7299": "275",
    "7300-7399": "275",
    "7400-7499": "275",
    "7500-7599": "290",
    "7600-7699": "290",
    "7700-7799": "278",
    "7800-7899": "278",
    "7900-7999": "279",
    "8000-8099": "278",
    "8100-8199": "269",
    "8200-8299": "269",
    "8300-8399": "273",
    "8400-8499": "267",
    "8500-8599": "273",
    "8600-8699": "267",
    "8700-8799": "267",
    "8800-8899": "270",
    "8900-8999": "270",
    "9000-9099": "270",
    "9100-9199": "270",
    "9200-9299": "270",
    "9300-9399": "277",
    "9400-9499": "280",
    "9500-9599": "280",
    "9600-9699": "280",
    "9700-9799": "280",
    "9800-9899": "286",
    "9900-9999": "286"
  }
}
